[
  {
    "title": "линукс-инк",
    "country": "Россия",
    "latitude": 0.0,
    "longitude": 0.0
  },
  {
    "title": "смартс",
    "country": "Россия",
    "latitude": 51.53732285,
    "longitude": -0.145907407727536
  },
  {
    "title": "corning",
    "country": "США",
    "latitude": 42.1435257,
    "longitude": -77.0543408
  },
  {
    "title": "би питрон",
    "country": "Россия",
    "latitude": 44.0078308,
    "longitude": 0.2357683
  },
  {
    "title": "црт",
    "country": "Россия",
    "latitude": 31.752287,
    "longitude": 35.212587
  },
  {
    "title": "huawei",
    "country": "Китай",
    "latitude": 51.2418336,
    "longitude": 6.7221219
  },
  {
    "title": "Банк СПб",
    "country": "Россия",
    "latitude": 59.9606739,
    "longitude": 30.1586551
  },
  {
    "title": "ГЕРОФАРМ ",
    "country": "Россия",
    "latitude": 54.98195665,
    "longitude": 37.2216069846796
  },
  {
    "title": "Альфа-Механика ",
    "country": "Россия",
    "latitude": 0.0,
    "longitude": 0.0
  },
  {
    "title": "Mail.ru ",
    "country": "Россия",
    "latitude": 55.082749,
    "longitude": 111.5042973
  },
  {
    "title": "Кулон",
    "country": "Россия",
    "latitude": 55.7818148,
    "longitude": 49.1893499
  },
  {
    "title": "Проблемная лаборатория Турбомашины ",
    "country": "Россия",
    "latitude": 0.0,
    "longitude": 0.0
  },
  {
    "title": "Германский Семенной Альянс ",
    "country": "Германия",
    "latitude": 0.0,
    "longitude": 0.0
  },
  {
    "title": "Новые технологии ",
    "country": "Россия",
    "latitude": 46.7792917,
    "longitude": 36.7844069
  },
  {
    "title": "АО \"КМЗ им. Зверева\"",
    "country": "Россия",
    "latitude": 0.0,
    "longitude": 0.0
  },
  {
    "title": "АО \"ЛЗОС\" ",
    "country": "Россия",
    "latitude": 0.0,
    "longitude": 0.0
  },
  {
    "title": "СберТех",
    "country": "Россия",
    "latitude": 55.69676135,
    "longitude": 37.6251980390724
  },
  {
    "title": "FirstLine ",
    "country": "Россия",
    "latitude": 42.923743,
    "longitude": 10.7581872
  },
  {
    "title": "Экоресурс",
    "country": "Россия",
    "latitude": 64.5236868,
    "longitude": 40.6453693
  },
  {
    "title": "Newa Nutrition",
    "country": "Россия",
    "latitude": 0.0,
    "longitude": 0.0
  },
  {
    "title": "OSD USA",
    "country": "США",
    "latitude": 35.8728033,
    "longitude": -78.8693963
  },
  {
    "title": "Zeiss",
    "country": "Германия",
    "latitude": 48.4525857,
    "longitude": 14.4500351
  },
  {
    "title": "Robotfish",
    "country": "Китай",
    "latitude": 0.0,
    "longitude": 0.0
  },
  {
    "title": "ООО КСП СПб ",
    "country": "Россия",
    "latitude": 0.0,
    "longitude": 0.0
  },
  {
    "title": "Cursor Oy",
    "country": "Финляндия",
    "latitude": 0.0,
    "longitude": 0.0
  },
  {
    "title": "Hultin Partners Oy ",
    "country": "Финляндия",
    "latitude": 0.0,
    "longitude": 0.0
  },
  {
    "title": "Мегафон",
    "country": "Россия",
    "latitude": 59.5643907,
    "longitude": 150.814809118777
  },
  {
    "title": "Ростелеком",
    "country": "Россия",
    "latitude": 54.1193671,
    "longitude": 37.5503028
  },
  {
    "title": "ЭР Телеком",
    "country": "Россия",
    "latitude": 56.8420982,
    "longitude": 35.9288582
  },
  {
    "title": "Максима телеком ",
    "country": "Россия",
    "latitude": 0.0,
    "longitude": 0.0
  },
  {
    "title": "ООО Квант, СПб ",
    "country": "Россия",
    "latitude": 59.9309656,
    "longitude": 30.3180712
  },
  {
    "title": "ооо \"ОРИМИ\" ",
    "country": "Россия",
    "latitude": 0.0,
    "longitude": 0.0
  },
  {
    "title": "Coca-Cola, Russia",
    "country": "Россия",
    "latitude": 48.7745598,
    "longitude": 44.8219843554245
  },
  {
    "title": "Schneider Electric ",
    "country": "Франция",
    "latitude": 49.07657475,
    "longitude": 0.777899784560365
  },
  {
    "title": "Городской клинический онкологический диспансер (СПб)",
    "country": "Россия",
    "latitude": 59.9810663,
    "longitude": 30.2945720683838
  },
  {
    "title": "ООО \"КЛЁКНЕР ПЕНТАПЛАСТ РУС\" (СПб) ",
    "country": "Россия",
    "latitude": 0.0,
    "longitude": 0.0
  },
  {
    "title": "OOO \" Антарес\", г.Санкт-Петербург ",
    "country": "Россия",
    "latitude": 59.9399531,
    "longitude": 30.2840813
  },
  {
    "title": "РФЯЦ-ВНИИТФ, Снежинск ",
    "country": "Россия",
    "latitude": 56.0882152,
    "longitude": 60.7363649385882
  },
  {
    "title": "Microsoft (USA)",
    "country": "США",
    "latitude": 37.41096725,
    "longitude": -122.071387373477
  },
  {
    "title": "Oracle (USA)",
    "country": "США",
    "latitude": 32.6109054,
    "longitude": -110.7709348
  },
  {
    "title": "Cisco USA",
    "country": "США",
    "latitude": 39.3024491,
    "longitude": -120.5471773
  },
  {
    "title": "Red Hat (USA) ",
    "country": "США",
    "latitude": 42.55433425,
    "longitude": -71.4438279891107
  },
  {
    "title": "ОАО \"Авангард\" (СПб) ",
    "country": "Россия",
    "latitude": 59.98623465,
    "longitude": 30.3989204725374
  },
  {
    "title": "ООО ПРОТЕИН ПЛЮС, ВАМТО ",
    "country": "Россия",
    "latitude": 0.0,
    "longitude": 0.0
  },
  {
    "title": "“Норникель”",
    "country": "Россия",
    "latitude": 44.3552897,
    "longitude": 38.5194910324284
  },
  {
    "title": "“Danone”",
    "country": "Россия",
    "latitude": 52.22864055,
    "longitude": 20.9399873699763
  },
  {
    "title": "ПАО «Квадра » ",
    "country": "Россия",
    "latitude": 52.7547701,
    "longitude": 41.4816646
  },
  {
    "title": "Научно-Технический Центр \"РОКАД\" ",
    "country": "Россия",
    "latitude": 0.0,
    "longitude": 0.0
  },
  {
    "title": "edX ",
    "country": "США",
    "latitude": 53.4389602,
    "longitude": 14.5753997
  },
  {
    "title": "Роснефть",
    "country": "Россия",
    "latitude": 59.9946128,
    "longitude": 29.7064465
  },
  {
    "title": "НИИ ГоЗнак, Москва",
    "country": "Россия",
    "latitude": 0.0,
    "longitude": 0.0
  },
  {
    "title": "Электроаппарат, Санкт-Петербург",
    "country": "Россия",
    "latitude": 59.8312673,
    "longitude": 30.2658075
  },
  {
    "title": "ООО Томс Санкт-Петербург",
    "country": "Россия",
    "latitude": 0.0,
    "longitude": 0.0
  },
  {
    "title": "РТИ им. Минца, Москва ",
    "country": "Россия",
    "latitude": 0.0,
    "longitude": 0.0
  },
  {
    "title": "\"Petrobars\" ",
    "country": "Россия",
    "latitude": 0.0,
    "longitude": 0.0
  },
  {
    "title": "1С",
    "country": "Россия",
    "latitude": 62.32342255,
    "longitude": 73.5096687874533
  },
  {
    "title": "Стартап Самара ",
    "country": "Россия",
    "latitude": 0.0,
    "longitude": 0.0
  },
  {
    "title": "ЗАО АйТи",
    "country": "Россия",
    "latitude": 18.5731259,
    "longitude": -72.2854972
  },
  {
    "title": "Счетная палата Владимирской области",
    "country": "Россия",
    "latitude": 0.0,
    "longitude": 0.0
  },
  {
    "title": "Счетная палата Российской федерации",
    "country": "Россия",
    "latitude": 0.0,
    "longitude": 0.0
  },
  {
    "title": "Контрольно-счетная палата Ивановской",
    "country": "Россия",
    "latitude": 0.0,
    "longitude": 0.0
  },
  {
    "title": "Счетная палала г. Волгоград",
    "country": "Россия",
    "latitude": 0.0,
    "longitude": 0.0
  },
  {
    "title": "ООО \"Инреко ЛАН\"",
    "country": "Россия",
    "latitude": 0.0,
    "longitude": 0.0
  },
  {
    "title": "Тора-Центр",
    "country": "Россия",
    "latitude": 41.8120807,
    "longitude": 1.4037146
  },
  {
    "title": "НПП Крион ",
    "country": "Россия",
    "latitude": 0.0,
    "longitude": 0.0
  },
  {
    "title": "Siemens",
    "country": "Германия",
    "latitude": 46.4749475,
    "longitude": -90.1035069
  },
  {
    "title": "МТС",
    "country": "Россия",
    "latitude": 49.1196964,
    "longitude": 6.1763552
  },
  {
    "title": "Сбербанк ",
    "country": "Россия",
    "latitude": 55.7548358,
    "longitude": 37.6010299
  },
  {
    "title": "CTV",
    "country": "Россия",
    "latitude": 25.0561728,
    "longitude": 121.599775315741
  },
  {
    "title": "Statanly",
    "country": "Россия",
    "latitude": 0.0,
    "longitude": 0.0
  },
  {
    "title": "Acronis",
    "country": "Швейцария",
    "latitude": 55.9213976,
    "longitude": 37.5347787
  },
  {
    "title": "Vk",
    "country": "Россия",
    "latitude": 46.5990959,
    "longitude": 14.6918849635883
  },
  {
    "title": "VeeRoute ",
    "country": "Россия",
    "latitude": 0.0,
    "longitude": 0.0
  },
  {
    "title": "Коннектор оптикс ",
    "country": "Россия",
    "latitude": 0.0,
    "longitude": 0.0
  },
  {
    "title": "НПП \"ГеоТестСервис\"",
    "country": "Россия",
    "latitude": 0.0,
    "longitude": 0.0
  },
  {
    "title": "БП-проект",
    "country": "Россия",
    "latitude": 0.0,
    "longitude": 0.0
  },
  {
    "title": "НПП \"Буревестник\" ",
    "country": "Россия",
    "latitude": 59.92976025,
    "longitude": 30.4031509257665
  },
  {
    "title": "НПО Реагент",
    "country": "Россия",
    "latitude": 0.0,
    "longitude": 0.0
  },
  {
    "title": "НПО Лептон ",
    "country": "Россия",
    "latitude": 0.0,
    "longitude": 0.0
  },
  {
    "title": "Яндекс СПБ ",
    "country": "Россия",
    "latitude": 59.9585638,
    "longitude": 30.4051659
  },
  {
    "title": "ПАО \"Техприбор\"",
    "country": "Россия",
    "latitude": 59.87943415,
    "longitude": 30.3046779787197
  },
  {
    "title": "Марвел дистрибьютор",
    "country": "Россия",
    "latitude": 0.0,
    "longitude": 0.0
  },
  {
    "title": "Extreme networks",
    "country": "США",
    "latitude": 35.8514633,
    "longitude": -78.79440635
  },
  {
    "title": "DELL EMC",
    "country": "Россия",
    "latitude": 48.9245837,
    "longitude": 2.2231778
  },
  {
    "title": "VEEAM",
    "country": "Россия",
    "latitude": 0.0,
    "longitude": 0.0
  }
]