[
  {
    "title": "Курчатовский институт ",
    "country": "Россия",
    "latitude": 55.7962343,
    "longitude": 37.4744722035418
  },
  {
    "title": "ГОИ вавилова",
    "country": "Россия",
    "latitude": 0.0,
    "longitude": 0.0
  },
  {
    "title": "tampere university",
    "country": "Финляндия",
    "latitude": 61.4949215,
    "longitude": 23.7815255
  },
  {
    "title": "LUT",
    "country": "Финляндия",
    "latitude": 30.313297,
    "longitude": 58.8905566576524
  },
  {
    "title": "university of amesterdam",
    "country": "Нидерланды",
    "latitude": 0.0,
    "longitude": 0.0
  },
  {
    "title": "спбгу",
    "country": "Россия",
    "latitude": 59.9530699,
    "longitude": 30.247647477172
  },
  {
    "title": "university of eastern finland",
    "country": "Финляндия",
    "latitude": 62.60434405,
    "longitude": 29.7422374647499
  },
  {
    "title": "томский политех",
    "country": "Россия",
    "latitude": 0.0,
    "longitude": 0.0
  },
  {
    "title": "фти иоффе",
    "country": "Россия",
    "latitude": 60.045527,
    "longitude": 30.2522308
  },
  {
    "title": "ИВС РАН",
    "country": "Россия",
    "latitude": 53.06662735,
    "longitude": 158.607773526707
  },
  {
    "title": "Australian National Univeristy",
    "country": "Австралия",
    "latitude": 0.0,
    "longitude": 0.0
  },
  {
    "title": "RIKEN",
    "country": "Япония",
    "latitude": 47.2760208,
    "longitude": 7.8491956
  },
  {
    "title": "Aalto University",
    "country": "Финляндия",
    "latitude": 60.18558755,
    "longitude": 24.824273298775
  },
  {
    "title": "Technical University of Denmark",
    "country": "Дания",
    "latitude": 55.78541445,
    "longitude": 12.5202151444421
  },
  {
    "title": "Halle-Wittenberg University",
    "country": "Германия",
    "latitude": 0.0,
    "longitude": 0.0
  },
  {
    "title": "Cork Institute of Technology",
    "country": "Ирландия",
    "latitude": 51.8839904,
    "longitude": -8.53398985310417
  },
  {
    "title": "Universit´e Cˆote d’Azur",
    "country": "Франция",
    "latitude": 43.9496228,
    "longitude": 4.8193604
  },
  {
    "title": "TU Delft",
    "country": "Нидерланды",
    "latitude": 51.99882735,
    "longitude": 4.37396036815404
  },
  {
    "title": "спииран",
    "country": "Россия",
    "latitude": 0.0,
    "longitude": 0.0
  },
  {
    "title": "ВНИИжиров",
    "country": "Россия",
    "latitude": 0.0,
    "longitude": 0.0
  },
  {
    "title": "спбау ран",
    "country": "Россия",
    "latitude": 60.00299425,
    "longitude": 30.3736034741676
  },
  {
    "title": "владимирский гу",
    "country": "Россия",
    "latitude": 49.2790068,
    "longitude": 142.2699977
  },
  {
    "title": "мгу",
    "country": "Россия",
    "latitude": 55.70229715,
    "longitude": 37.5317977694291
  },
  {
    "title": "Lulea University of Technology",
    "country": "Швеция",
    "latitude": 65.61991265,
    "longitude": 22.1410701
  },
  {
    "title": "Georgia Tech",
    "country": "США",
    "latitude": 33.776033,
    "longitude": -84.3988408600158
  },
  {
    "title": "University of Texas",
    "country": "США",
    "latitude": 30.284458,
    "longitude": -97.7342106
  },
  {
    "title": "ницэб ран",
    "country": "Россия",
    "latitude": 0.0,
    "longitude": 0.0
  },
  {
    "title": "Евразийский Национальный Университет им. Гумилева",
    "country": "Казахстан",
    "latitude": 0.0,
    "longitude": 0.0
  },
  {
    "title": "University of California",
    "country": "США",
    "latitude": 33.6431901,
    "longitude": -117.84016493553
  },
  {
    "title": "Казанский квантовый центр ",
    "country": "Россия",
    "latitude": 0.0,
    "longitude": 0.0
  },
  {
    "title": "Сколково ",
    "country": "Россия",
    "latitude": 53.3193964,
    "longitude": 50.7457846
  },
  {
    "title": "\"MIT, US ",
    "country": "США",
    "latitude": 42.3583961,
    "longitude": -71.0956778766393
  },
  {
    "title": "WPI, US\" ",
    "country": "США",
    "latitude": 42.27451265,
    "longitude": -71.8090594684876
  },
  {
    "title": "ЦНИИ \"Электроприбор\" ",
    "country": "Россия",
    "latitude": 59.9591534,
    "longitude": 30.3302781455502
  },
  {
    "title": "МИСиС",
    "country": "Россия",
    "latitude": 55.7277027,
    "longitude": 37.6072506074831
  },
  {
    "title": "ПСПбГМУ им. Павлова",
    "country": "Россия",
    "latitude": 59.9643646,
    "longitude": 30.3215502
  },
  {
    "title": "Chalmers University of Technology Göthenburg",
    "country": "Швеция",
    "latitude": 57.6896523,
    "longitude": 11.9766811023544
  },
  {
    "title": "Data Storage Institue Singapore ",
    "country": "Сингапур",
    "latitude": 0.0,
    "longitude": 0.0
  },
  {
    "title": "ESPCI (France)",
    "country": "Франция",
    "latitude": 48.84145965,
    "longitude": 2.34681006024533
  },
  {
    "title": "ETH Zurich",
    "country": "Швейцария",
    "latitude": 47.3764534,
    "longitude": 8.54770931489751
  },
  {
    "title": "Okinawa Institute of Science and Technology",
    "country": "Япония",
    "latitude": 26.4629847,
    "longitude": 127.830932873958
  },
  {
    "title": "University of Brescia ",
    "country": "Италия",
    "latitude": 37.7689374,
    "longitude": -87.1113859
  },
  {
    "title": "Perdue University",
    "country": "США",
    "latitude": 0.0,
    "longitude": 0.0
  },
  {
    "title": "Notre Dame University",
    "country": "Франция",
    "latitude": 7.2158438,
    "longitude": 124.2502405
  },
  {
    "title": "РГГМУ",
    "country": "Россия",
    "latitude": 59.9444864,
    "longitude": 30.4215782081343
  },
  {
    "title": "СПбФилиал НИИ Хлебопекарной промышленности",
    "country": "Россия",
    "latitude": 0.0,
    "longitude": 0.0
  },
  {
    "title": "Ленинградский НИИСХ",
    "country": "Россия",
    "latitude": 59.34996665,
    "longitude": 30.129971
  },
  {
    "title": "Тимирязевский ГОСУНИВЕРСИТЕТ ",
    "country": "Россия",
    "latitude": 0.0,
    "longitude": 0.0
  },
  {
    "title": "University of Virginia ",
    "country": "США",
    "latitude": 38.0353682,
    "longitude": -78.5035322
  },
  {
    "title": "Tyndall National Institute (Ирландия)",
    "country": "Ирландия",
    "latitude": 51.8979111,
    "longitude": -8.48375863703053
  },
  {
    "title": "National University of Ireland – UCC",
    "country": "Ирландия",
    "latitude": 0.0,
    "longitude": 0.0
  },
  {
    "title": "Dublin City University",
    "country": "Ирландия",
    "latitude": 53.38522185,
    "longitude": -6.25740874081493
  },
  {
    "title": "University of St. Andrews",
    "country": "Великобритания",
    "latitude": 56.3411984,
    "longitude": -2.7930938
  },
  {
    "title": "Universite Libre de Bruxelles",
    "country": "Бельгия",
    "latitude": 50.8132839,
    "longitude": 4.38145246459919
  },
  {
    "title": "Vrije Universiteit Brussel",
    "country": "Бельгия",
    "latitude": 50.8206674,
    "longitude": 4.3950331
  },
  {
    "title": "Weierstrass Institute",
    "country": "Германия",
    "latitude": 0.0,
    "longitude": 0.0
  },
  {
    "title": "Centre National de la Recherche Scientifique",
    "country": "Франция",
    "latitude": 43.2315905,
    "longitude": 5.44056070698445
  },
  {
    "title": "Centre de Nanosciences et de Nanotechnologies",
    "country": "Франция",
    "latitude": 48.6983123,
    "longitude": 2.16600204365694
  },
  {
    "title": "Université du Québec",
    "country": "Канада",
    "latitude": 46.78153955,
    "longitude": -71.2765369132157
  },
  {
    "title": "МГУПП",
    "country": "Россия",
    "latitude": 55.8051124,
    "longitude": 37.4978634340935
  },
  {
    "title": "КГТУ",
    "country": "Россия",
    "latitude": 54.7215768,
    "longitude": 20.4990084
  },
  {
    "title": "ОмГАУ",
    "country": "Россия",
    "latitude": 0.0,
    "longitude": 0.0
  },
  {
    "title": "НовГАУ им. Ярослава Мудрого ",
    "country": "Россия",
    "latitude": 0.0,
    "longitude": 0.0
  },
  {
    "title": "СЗГМУ им.Мечникова ",
    "country": "Россия",
    "latitude": 60.04525755,
    "longitude": 30.3690718553097
  },
  {
    "title": "Университет Турку",
    "country": "Финляндия",
    "latitude": 60.4488071,
    "longitude": 22.2766497362595
  },
  {
    "title": "Mannheim University",
    "country": "Германия",
    "latitude": 49.4832445,
    "longitude": 8.4645749
  },
  {
    "title": "XAMK",
    "country": "Финляндия",
    "latitude": 61.68040435,
    "longitude": 27.2578849982048
  },
  {
    "title": "Lapland University of Applied Sciences",
    "country": "Финляндия",
    "latitude": 66.4881776,
    "longitude": 25.70372265695
  },
  {
    "title": "Oulu University of Applied Sciences",
    "country": "Финляндия",
    "latitude": 65.00861805,
    "longitude": 25.4726477466852
  },
  {
    "title": "Tampere University of Applied Sciences",
    "country": "Финляндия",
    "latitude": 61.50431525,
    "longitude": 23.8088575299419
  },
  {
    "title": "Tallinn Technical University",
    "country": "Эстония",
    "latitude": 0.0,
    "longitude": 0.0
  },
  {
    "title": "Rakvere University",
    "country": "Эстония",
    "latitude": 0.0,
    "longitude": 0.0
  },
  {
    "title": "Финуниверситет ",
    "country": "Россия",
    "latitude": 0.0,
    "longitude": 0.0
  },
  {
    "title": "TUM",
    "country": "Германия",
    "latitude": 48.14955455,
    "longitude": 11.5677531417838
  },
  {
    "title": "ФГУП НИИР",
    "country": "Россия",
    "latitude": 55.7621696,
    "longitude": 37.6652767063254
  },
  {
    "title": "ФГУП ЦНИИС ",
    "country": "Россия",
    "latitude": 0.0,
    "longitude": 0.0
  },
  {
    "title": "СПбГПМУ",
    "country": "Россия",
    "latitude": 0.0,
    "longitude": 0.0
  },
  {
    "title": "СПбГХФУ",
    "country": "Россия",
    "latitude": 0.0,
    "longitude": 0.0
  },
  {
    "title": "Centre de Recherche en Biologie cellulaire de Montpellier (CRBM)",
    "country": "Франция",
    "latitude": 0.0,
    "longitude": 0.0
  },
  {
    "title": "ТвГУ ",
    "country": "Россия",
    "latitude": 56.8366901,
    "longitude": 35.9007728395761
  },
  {
    "title": "НИИ онкологии им.Н.Н.Петрова",
    "country": "Россия",
    "latitude": 0.0,
    "longitude": 0.0
  },
  {
    "title": "Агрофизический научно-исследовательский институт",
    "country": "Россия",
    "latitude": 0.0,
    "longitude": 0.0
  },
  {
    "title": "Всеросийский научно-исследовательский институт пищевых добавок",
    "country": "Россия",
    "latitude": 0.0,
    "longitude": 0.0
  },
  {
    "title": "ФГБУ науки Институт Озероведения РАН",
    "country": "Россия",
    "latitude": 0.0,
    "longitude": 0.0
  },
  {
    "title": "Специальная астрофизическая обсерватория РАН",
    "country": "Россия",
    "latitude": 0.0,
    "longitude": 0.0
  },
  {
    "title": "Exeter University",
    "country": "Великобритания",
    "latitude": 50.7369302,
    "longitude": -3.53647671702167
  },
  {
    "title": "Goethe University Frankfurt",
    "country": "Германия",
    "latitude": 50.17232545,
    "longitude": 8.63072835153081
  },
  {
    "title": "Sheffield University",
    "country": "Великобритания",
    "latitude": 33.4390365,
    "longitude": -88.8090205
  },
  {
    "title": "МФТИ",
    "country": "Россия",
    "latitude": 55.929035,
    "longitude": 37.5186680829482
  },
  {
    "title": "University of Twente ",
    "country": "Нидерланды",
    "latitude": 52.2380139,
    "longitude": 6.8566761
  },
  {
    "title": "Институт физиологии им. И.П. Павлова РАН",
    "country": "Россия",
    "latitude": 0.0,
    "longitude": 0.0
  },
  {
    "title": "ГИПРОрыбфлот",
    "country": "Россия",
    "latitude": 0.0,
    "longitude": 0.0
  },
  {
    "title": "ГОСНИИХП ",
    "country": "Россия",
    "latitude": 0.0,
    "longitude": 0.0
  },
  {
    "title": "Университет Тор-Вергата",
    "country": "Россия",
    "latitude": 0.0,
    "longitude": 0.0
  },
  {
    "title": "Университет КАУСТ ",
    "country": "Россия",
    "latitude": 22.31055485,
    "longitude": 39.1051548637793
  },
  {
    "title": "Университет Исландии",
    "country": "Исландия",
    "latitude": 64.13994175,
    "longitude": -21.9490591009086
  },
  {
    "title": "Институт катализа им. Г.К. Борескова СО РАН",
    "country": "Россия",
    "latitude": 0.0,
    "longitude": 0.0
  },
  {
    "title": "University of Waterloo ",
    "country": "Канада",
    "latitude": 43.47061295,
    "longitude": -80.5449579682451
  },
  {
    "title": "AIST",
    "country": "Япония",
    "latitude": 48.2741704,
    "longitude": 14.5786404
  },
  {
    "title": "TEI of Crete",
    "country": "Греция",
    "latitude": 35.5188832,
    "longitude": 24.0427090187396
  },
  {
    "title": "Trinity Colledge Dublin",
    "country": "Ирландия",
    "latitude": 0.0,
    "longitude": 0.0
  },
  {
    "title": "Linkoping University (Sweden) ",
    "country": "Швеция",
    "latitude": 0.0,
    "longitude": 0.0
  },
  {
    "title": "НИЯУ МИФИ",
    "country": "Россия",
    "latitude": 55.65067035,
    "longitude": 37.666079274505
  },
  {
    "title": "Физико-технический институт РАН, СПб, РФ ",
    "country": "Россия",
    "latitude": 0.0,
    "longitude": 0.0
  },
  {
    "title": "Институт электроники Болгарской академии наук, София, Болгария ",
    "country": "Болгария",
    "latitude": 0.0,
    "longitude": 0.0
  },
  {
    "title": "Институт физических исследований Национальной академии наук Республики Армения, Аштарак, Республика Армения ",
    "country": "Армения",
    "latitude": 0.0,
    "longitude": 0.0
  },
  {
    "title": "Университет Сиены, Сиена, Италия",
    "country": "Италия",
    "latitude": 0.0,
    "longitude": 0.0
  },
  {
    "title": "INRS-EMT",
    "country": "Канада",
    "latitude": 0.0,
    "longitude": 0.0
  },
  {
    "title": "Institute de Physique de Nice, CNRS",
    "country": "Франция",
    "latitude": 0.0,
    "longitude": 0.0
  },
  {
    "title": "Georgia Tech-CNRS UMI, Georgia Tech Lorraine (Metz, France)",
    "country": "Франция",
    "latitude": 0.0,
    "longitude": 0.0
  },
  {
    "title": "Университет ENS de Cachan, France, ",
    "country": "Франция",
    "latitude": 48.78934105,
    "longitude": 2.36371508464212
  },
  {
    "title": "New Mexico Highlands University, US",
    "country": "США",
    "latitude": 35.5953214,
    "longitude": -105.2191745
  },
  {
    "title": "Debrecen university Hungary ",
    "country": "Венгрия",
    "latitude": 47.5543249,
    "longitude": 21.6239011
  },
  {
    "title": "Кемеровский государственный университет ",
    "country": "Россия",
    "latitude": 55.35135765,
    "longitude": 86.0929299657845
  },
  {
    "title": "ЯрГУ им. Демидова",
    "country": "Россия",
    "latitude": 57.632969,
    "longitude": 39.8868638811284
  },
  {
    "title": "ЯГТУ ",
    "country": "Россия",
    "latitude": 57.5878851,
    "longitude": 39.8552741548027
  },
  {
    "title": "Hong Kong University of Science and Technology ",
    "country": "Китай",
    "latitude": 22.3386304,
    "longitude": 114.2620337
  },
  {
    "title": "тгу",
    "country": "Россия",
    "latitude": 14.06037385,
    "longitude": -87.219335541562
  },
  {
    "title": "Институт мониторинга климатических и экологических систем СО РАН (Томск)",
    "country": "Россия",
    "latitude": 0.0,
    "longitude": 0.0
  },
  {
    "title": "Институт физики полупроводников СО РАН (Новосибирск)",
    "country": "Россия",
    "latitude": 0.0,
    "longitude": 0.0
  },
  {
    "title": "Технический университет Дортмунда (Германия)",
    "country": "Россия",
    "latitude": 0.0,
    "longitude": 0.0
  },
  {
    "title": "Астонский университет (Великобритания) ",
    "country": "Великобритания",
    "latitude": 0.0,
    "longitude": 0.0
  },
  {
    "title": "National Technical University of Athens ",
    "country": "Греция",
    "latitude": 37.98782705,
    "longitude": 23.7317973260904
  },
  {
    "title": "Южно-Уральский государственный университет",
    "country": "Россия",
    "latitude": 55.1270152,
    "longitude": 61.3868483392811
  },
  {
    "title": "КазНУ ",
    "country": "Россия",
    "latitude": 43.22525795,
    "longitude": 76.92060345
  },
  {
    "title": "Ульяновский Государственный Технический Университет ",
    "country": "Россия",
    "latitude": 54.35129035,
    "longitude": 48.3870656059248
  },
  {
    "title": "HOGSKOLEN I MOLDE, Norway ",
    "country": "Норвегия",
    "latitude": 62.7365613,
    "longitude": 7.10931680819248
  },
  {
    "title": "RAVENSBOURNE COLLEGE, UK ",
    "country": "Великобритания",
    "latitude": 51.5591787,
    "longitude": 0.2080091
  },
  {
    "title": "RHEINISCH-WESTFAELISCHE TECHNISCHE HOCHSCHULE AACHEN, Germany ",
    "country": "Германия",
    "latitude": 50.7791703,
    "longitude": 6.06728732851292
  },
  {
    "title": "OXFORD BROOKES UNIVERSITY, UK",
    "country": "Великобритания",
    "latitude": 51.7555205,
    "longitude": -1.2261597
  },
  {
    "title": "Helsinki University",
    "country": "Финляндия",
    "latitude": -3.4005109,
    "longitude": 38.3647309
  },
  {
    "title": "Университет Белграда ",
    "country": "Сербия",
    "latitude": 0.0,
    "longitude": 0.0
  },
  {
    "title": "Институт геологии Карельского научного центра РАН",
    "country": "Россия",
    "latitude": 0.0,
    "longitude": 0.0
  },
  {
    "title": "Санкт-Петербургский аграрный университет ",
    "country": "Россия",
    "latitude": 0.0,
    "longitude": 0.0
  },
  {
    "title": "НМИЦ им. В.А. Алиазова ",
    "country": "Россия",
    "latitude": 0.0,
    "longitude": 0.0
  },
  {
    "title": "КубГУ ",
    "country": "Россия",
    "latitude": 45.02036085,
    "longitude": 39.0309999450427
  },
  {
    "title": "University of Lisbon",
    "country": "Португалия",
    "latitude": 38.75109295,
    "longitude": -9.15620350637932
  },
  {
    "title": "ИДСТУ СО РАН ",
    "country": "Россия",
    "latitude": 0.0,
    "longitude": 0.0
  },
  {
    "title": "Ulm University",
    "country": "Германия",
    "latitude": 37.936437,
    "longitude": -88.6094993
  },
  {
    "title": "West Bohemia University",
    "country": "Чехия",
    "latitude": 51.3113132,
    "longitude": 9.47422924339855
  },
  {
    "title": "Le Mans University",
    "country": "Франция",
    "latitude": 48.0170443,
    "longitude": 0.162579742959138
  },
  {
    "title": "Sapienza University in Rome",
    "country": "Италия",
    "latitude": 41.9049376,
    "longitude": 12.5173766512607
  },
  {
    "title": "БГУИР",
    "country": "Беларусь",
    "latitude": 53.858257,
    "longitude": 27.4852876750563
  },
  {
    "title": "Australian National University",
    "country": "Австралия",
    "latitude": -35.277578,
    "longitude": 149.118776
  },
  {
    "title": "Unitec University",
    "country": "Гондурас",
    "latitude": 14.049428,
    "longitude": -87.174094
  },
  {
    "title": "Shanghai Customs College",
    "country": "China",
    "latitude": 31.167385,
    "longitude": 121.577839
  },
  {
    "title": "Lyceum of the Philippines University",
    "country": "Philippines",
    "latitude": 14.591899,
    "longitude": 120.977779563
  }
]